timestamp_sec,person_idx,person_lat,person_lon,drone_lat,drone_lon,drone_altitude_agl,roll_deg,pitch_deg,yaw_deg,confidence,num_detections_in_frame,altitude
1771590159.992250919,1,28.753783127,77.115402440,28.753786100,77.115400500,6.197,0.8485,-2.6618,22.7383,0.5839,1
1771590189.460758209,1,28.753817379,77.115523719,28.753786300,77.115519200,6.296,-1.6552,0.0395,5.5585,0.7185,1
1771590189.527505159,1,28.753817007,77.115524039,28.753786300,77.115519200,6.296,-1.6552,0.0395,5.5585,0.6391,1
1771590189.560878754,1,28.753816718,77.115524415,28.753786300,77.115519200,6.296,-1.6552,0.0395,5.5585,0.5613,1
1771590189.660999298,1,28.753815373,77.115527893,28.753786600,77.115522300,6.307,-1.3919,-0.6568,6.2830,0.7914,1
1771590189.694372654,1,28.753815116,77.115527756,28.753786600,77.115522300,6.307,-1.3919,-0.6568,6.2830,0.7995,1
1771590189.727746010,1,28.753814979,77.115528066,28.753786600,77.115522300,6.307,-1.3919,-0.6568,6.2830,0.6157,1
1771590189.761119604,1,28.753814734,77.115528164,28.753786600,77.115522300,6.307,-1.3919,-0.6568,6.2830,0.5333,1
1771590189.794493198,1,28.753814454,77.115528760,28.753786600,77.115522300,6.307,-1.3919,-0.6568,6.2830,0.6646,1
1771590189.827866793,1,28.753813165,77.115531928,28.753787100,77.115525400,6.305,-1.0580,-1.7458,7.1507,0.6744,1
1771590189.861240149,1,28.753813242,77.115531604,28.753787100,77.115525400,6.305,-1.0580,-1.7458,7.1507,0.6975,1
1771590189.894613504,1,28.753812328,77.115531892,28.753787100,77.115525400,6.305,-1.0580,-1.7458,7.1507,0.7833,1
1771590189.927987099,1,28.753811905,77.115531958,28.753787100,77.115525400,6.305,-1.0580,-1.7458,7.1507,0.6702,1
1771590189.961360693,1,28.753811416,77.115531816,28.753787100,77.115525400,6.305,-1.0580,-1.7458,7.1507,0.5994,1
1771590189.994734049,1,28.753810727,77.115531616,28.753787100,77.115525400,6.305,-1.0580,-1.7458,7.1507,0.5251,1
1771590190.028107643,1,28.753810185,77.115531468,28.753787100,77.115525400,6.305,-1.0580,-1.7458,7.1507,0.8281,1
1771590190.061480999,1,28.753809017,77.115535634,28.753787400,77.115528800,6.293,-1.3542,-2.6164,8.3918,0.8054,1
1771590190.094854593,1,28.753808300,77.115535327,28.753787400,77.115528800,6.293,-1.3542,-2.6164,8.3918,0.7351,1
1771590190.128228903,1,28.753808237,77.115535258,28.753787400,77.115528800,6.293,-1.3542,-2.6164,8.3918,0.7880,1
1771590190.161602497,1,28.753807774,77.115535209,28.753787400,77.115528800,6.293,-1.3542,-2.6164,8.3918,0.7037,1
1771590190.194975853,1,28.753807711,77.115534959,28.753787400,77.115528800,6.293,-1.3542,-2.6164,8.3918,0.6273,1
1771590190.228349447,1,28.753807684,77.115534906,28.753787400,77.115528800,6.293,-1.3542,-2.6164,8.3918,0.7537,1
1771590190.261722803,1,28.753807741,77.115534940,28.753787400,77.115528800,6.293,-1.3542,-2.6164,8.3918,0.7522,1
1771590190.295096159,1,28.753807872,77.115534920,28.753787400,77.115528800,6.293,-1.3542,-2.6164,8.3918,0.7809,1
1771590190.328469753,1,28.753809414,77.115539457,28.753787700,77.115532000,6.283,-2.1507,-1.2386,9.2302,0.7063,1
1771590190.361843348,1,28.753809210,77.115539434,28.753787700,77.115532000,6.283,-2.1507,-1.2386,9.2302,0.7448,1
1771590190.395216703,1,28.753809155,77.115539595,28.753787700,77.115532000,6.283,-2.1507,-1.2386,9.2302,0.6750,1
1771590190.428590059,1,28.753808708,77.115539213,28.753787700,77.115532000,6.283,-2.1507,-1.2386,9.2302,0.6802,1
1771590190.461963654,1,28.753808291,77.115538913,28.753787700,77.115532000,6.283,-2.1507,-1.2386,9.2302,0.6305,1
1771590190.495337248,1,28.753807498,77.115538766,28.753787700,77.115532000,6.283,-2.1507,-1.2386,9.2302,0.5911,1
1771590194.466776848,1,28.753781806,77.115566559,28.753793000,77.115570400,6.316,-1.1044,-1.4387,13.8956,0.5395,1
1771590194.500151634,1,28.753781923,77.115566437,28.753793000,77.115570400,6.316,-1.1044,-1.4387,13.8956,0.5848,1
1771590194.566900969,1,28.753780430,77.115566993,28.753792800,77.115571100,6.330,-1.3719,-2.2412,14.0862,0.6200,1
1771590194.600275517,1,28.753780112,77.115566933,28.753792800,77.115571100,6.330,-1.3719,-2.2412,14.0862,0.5093,1
1771590194.633650303,1,28.753779834,77.115566753,28.753792800,77.115571100,6.330,-1.3719,-2.2412,14.0862,0.5756,1
1771590194.667024851,1,28.753779728,77.115566239,28.753792800,77.115571100,6.330,-1.3719,-2.2412,14.0862,0.6242,1
1771590194.700399637,1,28.753779614,77.115566150,28.753792800,77.115571100,6.330,-1.3719,-2.2412,14.0862,0.5297,1
1771590194.767149210,1,28.753779062,77.115565753,28.753792800,77.115571100,6.330,-1.3719,-2.2412,14.0862,0.5467,1
1771590194.800523996,1,28.753778657,77.115565580,28.753792800,77.115571100,6.330,-1.3719,-2.2412,14.0862,0.5914,1
1771590194.934022903,1,28.753775431,77.115565054,28.753792700,77.115571500,6.341,-2.0054,-3.2067,14.1734,0.5108,1
1771590195.968604565,1,28.753773388,77.115562466,28.753793200,77.115571000,6.364,-2.9800,-5.4215,14.5156,0.6144,1
1771590224.569666386,1,28.753746970,77.115601775,28.753718500,77.115614700,6.327,0.1467,-0.1281,-31.7860,0.5472,1
1771590224.603039980,1,28.753746645,77.115602433,28.753718500,77.115614700,6.327,0.1467,-0.1281,-31.7860,0.6993,1
1771590224.636413574,1,28.753745779,77.115603067,28.753718500,77.115614700,6.327,0.1467,-0.1281,-31.7860,0.7670,1
1771590224.669786930,1,28.753744493,77.115604004,28.753718500,77.115614700,6.327,0.1467,-0.1281,-31.7860,0.7582,1
1771590224.703160286,1,28.753743577,77.115604783,28.753718500,77.115614700,6.327,0.1467,-0.1281,-31.7860,0.8495,1
1771590224.736533880,1,28.753743002,77.115605936,28.753718500,77.115614700,6.327,0.1467,-0.1281,-31.7860,0.7949,1
1771590224.769907236,1,28.753742616,77.115607289,28.753718500,77.115614700,6.327,0.1467,-0.1281,-31.7860,0.7607,1
1771590224.803280830,1,28.753742441,77.115607840,28.753718500,77.115614700,6.327,0.1467,-0.1281,-31.7860,0.8203,1
1771590224.836654186,1,28.753736415,77.115613561,28.753717100,77.115617500,6.335,1.2738,-4.4535,-30.2228,0.7264,1
1771590224.870027781,1,28.753736526,77.115613569,28.753717100,77.115617500,6.335,1.2738,-4.4535,-30.2228,0.7719,1
1771590224.903401136,1,28.753736715,77.115614093,28.753717100,77.115617500,6.335,1.2738,-4.4535,-30.2228,0.7292,1
1771590224.936774731,1,28.753736960,77.115614389,28.753717100,77.115617500,6.335,1.2738,-4.4535,-30.2228,0.7104,1
1771590224.970148087,1,28.753737076,77.115614857,28.753717100,77.115617500,6.335,1.2738,-4.4535,-30.2228,0.7889,1
1771590225.003521442,1,28.753737180,77.115614957,28.753717100,77.115617500,6.335,1.2738,-4.4535,-30.2228,0.8193,1
1771590225.036895037,1,28.753737151,77.115615130,28.753717100,77.115617500,6.335,1.2738,-4.4535,-30.2228,0.8423,1
1771590225.070268631,1,28.753737018,77.115615320,28.753717100,77.115617500,6.335,1.2738,-4.4535,-30.2228,0.8254,1
1771590225.103641748,1,28.753737040,77.115615936,28.753715800,77.115619700,6.341,1.8922,-2.6904,-29.6934,0.7436,1
1771590225.137015343,1,28.753737129,77.115615818,28.753715800,77.115619700,6.341,1.8922,-2.6904,-29.6934,0.7980,1
1771590225.170389891,1,28.753736892,77.115616020,28.753715800,77.115619700,6.341,1.8922,-2.6904,-29.6934,0.8170,1
1771590225.203763247,1,28.753736614,77.115616118,28.753715800,77.115619700,6.341,1.8922,-2.6904,-29.6934,0.7733,1
1771590225.237136602,1,28.753736522,77.115616056,28.753715800,77.115619700,6.341,1.8922,-2.6904,-29.6934,0.7915,1
1771590225.270509958,1,28.753736201,77.115616154,28.753715800,77.115619700,6.341,1.8922,-2.6904,-29.6934,0.8346,1
1771590225.303883553,1,28.753736095,77.115616066,28.753715800,77.115619700,6.341,1.8922,-2.6904,-29.6934,0.8182,1
1771590225.337256908,1,28.753734457,77.115617674,28.753714300,77.115621700,6.342,2.1456,-2.1643,-29.7983,0.7896,1
1771590225.370630264,1,28.753734291,77.115617630,28.753714300,77.115621700,6.342,2.1456,-2.1643,-29.7983,0.8339,1
1771590225.404003620,1,28.753733857,77.115617593,28.753714300,77.115621700,6.342,2.1456,-2.1643,-29.7983,0.8399,1
1771590225.437377214,1,28.753733575,77.115617612,28.753714300,77.115621700,6.342,2.1456,-2.1643,-29.7983,0.7666,1
1771590225.470750570,1,28.753733325,77.115617701,28.753714300,77.115621700,6.342,2.1456,-2.1643,-29.7983,0.8418,1
1771590225.504123926,1,28.753732570,77.115617939,28.753714300,77.115621700,6.342,2.1456,-2.1643,-29.7983,0.8653,1
1771590225.537497282,1,28.753732321,77.115617891,28.753714300,77.115621700,6.342,2.1456,-2.1643,-29.7983,0.8532,1
1771590225.570870876,1,28.753731801,77.115617692,28.753714300,77.115621700,6.342,2.1456,-2.1643,-29.7983,0.8070,1
1771590225.604244232,1,28.753728366,77.115620038,28.753712700,77.115623600,6.341,1.9500,-3.2600,-31.2536,0.7829,1
1771590225.637617588,1,28.753727958,77.115619835,28.753712700,77.115623600,6.341,1.9500,-3.2600,-31.2536,0.8316,1
1771590225.670990944,1,28.753727299,77.115619244,28.753712700,77.115623600,6.341,1.9500,-3.2600,-31.2536,0.8349,1
1771590225.704364538,1,28.753726704,77.115618948,28.753712700,77.115623600,6.341,1.9500,-3.2600,-31.2536,0.8702,1
1771590225.737737894,1,28.753726347,77.115618475,28.753712700,77.115623600,6.341,1.9500,-3.2600,-31.2536,0.8283,1
1771590225.771111250,1,28.753725784,77.115618054,28.753712700,77.115623600,6.341,1.9500,-3.2600,-31.2536,0.8390,1
1771590225.804484606,1,28.753725559,77.115617365,28.753712700,77.115623600,6.341,1.9500,-3.2600,-31.2536,0.7947,1
1771590225.837858200,1,28.753724711,77.115619177,28.753711100,77.115625200,6.339,-0.1085,-2.9110,-34.6949,0.7997,1
1771590225.871232748,1,28.753724424,77.115618765,28.753711100,77.115625200,6.339,-0.1085,-2.9110,-34.6949,0.8085,1
1771590225.904605865,1,28.753724063,77.115618341,28.753711100,77.115625200,6.339,-0.1085,-2.9110,-34.6949,0.8322,1
1771590225.937979460,1,28.753723582,77.115618194,28.753711100,77.115625200,6.339,-0.1085,-2.9110,-34.6949,0.8625,1
1771590225.971352816,1,28.753723291,77.115617934,28.753711100,77.115625200,6.339,-0.1085,-2.9110,-34.6949,0.8466,1
1771590226.004726410,1,28.753722600,77.115618234,28.753711100,77.115625200,6.339,-0.1085,-2.9110,-34.6949,0.7609,1
1771590226.038099527,1,28.753722379,77.115618183,28.753711100,77.115625200,6.339,-0.1085,-2.9110,-34.6949,0.7705,1
1771590226.071472883,1,28.753721849,77.115618420,28.753711100,77.115625200,6.339,-0.1085,-2.9110,-34.6949,0.5451,1
1771590226.104846478,1,28.753720031,77.115620060,28.753709500,77.115626800,6.332,-0.8506,-2.7757,-37.4477,0.6913,1
1771590226.138220072,1,28.753719669,77.115620077,28.753709500,77.115626800,6.332,-0.8506,-2.7757,-37.4477,0.7865,1
1771590226.171593189,1,28.753719162,77.115620245,28.753709500,77.115626800,6.332,-0.8506,-2.7757,-37.4477,0.7336,1
1771590226.204966784,1,28.753718822,77.115620187,28.753709500,77.115626800,6.332,-0.8506,-2.7757,-37.4477,0.7017,1
1771590226.505328178,1,28.753713842,77.115623946,28.753707600,77.115628400,6.322,-1.0470,-3.1417,-39.0036,0.6525,1
1771590226.605449677,1,28.753710558,77.115627060,28.753705900,77.115630000,6.313,-0.9304,-3.7942,-39.4874,0.5705,1
1771590226.772317171,1,28.753709385,77.115628639,28.753705900,77.115630000,6.313,-0.9304,-3.7942,-39.4874,0.6743,1
1771590230.810509205,1,28.753697529,77.115641194,28.753699400,77.115638000,6.217,1.2530,-3.7209,-40.1229,0.5499,1
1771590230.843882561,1,28.753699604,77.115640997,28.753700200,77.115637700,6.233,0.4593,-2.9348,-39.7955,0.5404,1
1771590230.877256155,1,28.753699612,77.115640694,28.753700200,77.115637700,6.233,0.4593,-2.9348,-39.7955,0.6011,1
1771590230.910629511,1,28.753699614,77.115640484,28.753700200,77.115637700,6.233,0.4593,-2.9348,-39.7955,0.5974,1
1771590230.944002867,1,28.753699755,77.115640279,28.753700200,77.115637700,6.233,0.4593,-2.9348,-39.7955,0.5678,1
1771590230.977376461,1,28.753699692,77.115640330,28.753700200,77.115637700,6.233,0.4593,-2.9348,-39.7955,0.6672,1
1771590231.010749817,1,28.753699688,77.115639799,28.753700200,77.115637700,6.233,0.4593,-2.9348,-39.7955,0.6042,1
1771590231.044123173,1,28.753699733,77.115639952,28.753700200,77.115637700,6.233,0.4593,-2.9348,-39.7955,0.5888,1
1771590231.077496529,1,28.753700486,77.115640110,28.753700600,77.115637200,6.248,-0.3384,-3.1782,-39.6069,0.6376,1
1771590231.177616835,1,28.753700542,77.115639298,28.753700600,77.115637200,6.248,-0.3384,-3.1782,-39.6069,0.5715,1
1771590231.244364023,1,28.753699978,77.115638264,28.753700600,77.115637200,6.248,-0.3384,-3.1782,-39.6069,0.5019,1
1771590231.277737379,1,28.753700037,77.115638231,28.753700600,77.115637200,6.248,-0.3384,-3.1782,-39.6069,0.5590,1
1771590231.311110735,1,28.753699931,77.115638036,28.753700600,77.115637200,6.248,-0.3384,-3.1782,-39.6069,0.5552,1
1771590231.344484329,1,28.753701115,77.115638895,28.753700900,77.115636600,6.258,-2.1291,-3.1913,-39.6324,0.5848,1
1771590231.377857924,1,28.753701380,77.115638619,28.753700900,77.115636600,6.258,-2.1291,-3.1913,-39.6324,0.6278,1
1771590231.444604635,1,28.753701707,77.115638475,28.753700900,77.115636600,6.258,-2.1291,-3.1913,-39.6324,0.5567,1
1771590231.477979183,1,28.753701529,77.115638491,28.753700900,77.115636600,6.258,-2.1291,-3.1913,-39.6324,0.6013,1
1771590231.511352539,1,28.753701870,77.115638166,28.753700900,77.115636600,6.258,-2.1291,-3.1913,-39.6324,0.6222,1
1771590231.544726133,1,28.753702145,77.115638041,28.753700900,77.115636600,6.258,-2.1291,-3.1913,-39.6324,0.6273,1
1771590231.578099728,1,28.753702008,77.115636386,28.753701200,77.115635800,6.244,-1.4842,-3.2253,-39.8756,0.6086,1
1771590231.611473083,1,28.753702003,77.115636211,28.753701200,77.115635800,6.244,-1.4842,-3.2253,-39.8756,0.6607,1
1771590231.644846439,1,28.753702344,77.115636005,28.753701200,77.115635800,6.244,-1.4842,-3.2253,-39.8756,0.5722,1
1771590231.678220034,1,28.753702715,77.115635665,28.753701200,77.115635800,6.244,-1.4842,-3.2253,-39.8756,0.6517,1
1771590231.711593390,1,28.753702749,77.115635297,28.753701200,77.115635800,6.244,-1.4842,-3.2253,-39.8756,0.5304,1
1771590231.744966745,1,28.753703106,77.115634810,28.753701200,77.115635800,6.244,-1.4842,-3.2253,-39.8756,0.6412,1
1771590231.778340340,1,28.753703488,77.115634243,28.753701200,77.115635800,6.244,-1.4842,-3.2253,-39.8756,0.5885,1
1771590231.811713934,1,28.753704162,77.115633341,28.753701200,77.115635800,6.244,-1.4842,-3.2253,-39.8756,0.6705,1
1771590231.845087051,1,28.753706795,77.115630013,28.753701600,77.115634600,6.224,-1.6669,-0.7784,-40.5197,0.5688,1
1771590231.878460646,1,28.753707388,77.115629575,28.753701600,77.115634600,6.224,-1.6669,-0.7784,-40.5197,0.6404,1
1771590231.911834240,1,28.753707726,77.115629348,28.753701600,77.115634600,6.224,-1.6669,-0.7784,-40.5197,0.7181,1
1771590231.945207834,1,28.753707886,77.115628796,28.753701600,77.115634600,6.224,-1.6669,-0.7784,-40.5197,0.7076,1
1771590231.978580952,1,28.753707902,77.115628174,28.753701600,77.115634600,6.224,-1.6669,-0.7784,-40.5197,0.7044,1
1771590232.011954546,1,28.753708135,77.115627798,28.753701600,77.115634600,6.224,-1.6669,-0.7784,-40.5197,0.5861,1
1771590232.045328140,1,28.753708203,77.115627490,28.753701600,77.115634600,6.224,-1.6669,-0.7784,-40.5197,0.6234,1
1771590232.078701496,1,28.753710311,77.115624911,28.753702200,77.115633300,6.207,-2.2166,0.9429,-41.4061,0.6022,1
1771590232.112074852,1,28.753710403,77.115624873,28.753702200,77.115633300,6.207,-2.2166,0.9429,-41.4061,0.5762,1
1771590232.145448446,1,28.753710448,77.115624847,28.753702200,77.115633300,6.207,-2.2166,0.9429,-41.4061,0.5519,1
1771590232.445810080,1,28.753709979,77.115625283,28.753702600,77.115632400,6.195,-1.8521,-0.0650,-42.2583,0.5523,1
1771590232.512556791,1,28.753710620,77.115625137,28.753702600,77.115632400,6.195,-1.8521,-0.0650,-42.2583,0.5412,1
1771590232.545930386,1,28.753711242,77.115624848,28.753702600,77.115632400,6.195,-1.8521,-0.0650,-42.2583,0.7254,1
1771590232.612677097,1,28.753714200,77.115620673,28.753703100,77.115631800,6.195,-0.5047,1.8006,-42.3304,0.5999,1
1771590232.679423809,1,28.753715820,77.115619003,28.753703100,77.115631800,6.195,-0.5047,1.8006,-42.3304,0.6720,1
1771590232.746170759,1,28.753716522,77.115618317,28.753703100,77.115631800,6.195,-0.5047,1.8006,-42.3304,0.5700,1
1771590232.812917471,1,28.753715833,77.115619015,28.753703100,77.115631800,6.195,-0.5047,1.8006,-42.3304,0.6416,1
1771590232.879665375,1,28.753716316,77.115618638,28.753703100,77.115632000,6.183,-0.2689,4.3321,-42.2319,0.5501,1
1771590233.947615862,1,28.753709680,77.115622356,28.753703100,77.115632000,6.183,-0.2689,4.3321,-42.2319,0.6772,1
1771590233.980989456,1,28.753709513,77.115622143,28.753703100,77.115632000,6.183,-0.2689,4.3321,-42.2319,0.6925,1
1771590234.014362812,1,28.753709257,77.115621652,28.753703100,77.115632000,6.183,-0.2689,4.3321,-42.2319,0.6356,1
1771590234.047736406,1,28.753708770,77.115621238,28.753703100,77.115632000,6.183,-0.2689,4.3321,-42.2319,0.6617,1
1771590234.081109762,1,28.753704976,77.115629821,28.753701600,77.115634100,6.170,-3.7368,-1.0725,-40.4358,0.5976,1
1771590234.114483118,1,28.753704921,77.115629605,28.753701600,77.115634100,6.170,-3.7368,-1.0725,-40.4358,0.6528,1
1771590234.147856712,1,28.753704765,77.115629376,28.753701600,77.115634100,6.170,-3.7368,-1.0725,-40.4358,0.6319,1
1771590234.181230307,1,28.753704369,77.115629258,28.753701600,77.115634100,6.170,-3.7368,-1.0725,-40.4358,0.5626,1
1771590234.214603424,1,28.753704174,77.115629143,28.753701600,77.115634100,6.170,-3.7368,-1.0725,-40.4358,0.6552,1
1771590234.247977018,1,28.753703989,77.115629318,28.753701600,77.115634100,6.170,-3.7368,-1.0725,-40.4358,0.5613,1
1771590234.281351566,1,28.753704041,77.115629448,28.753701600,77.115634100,6.170,-3.7368,-1.0725,-40.4358,0.6044,1
1771590234.314725161,1,28.753703928,77.115630891,28.753701200,77.115634300,6.183,-4.4806,-1.3738,-40.3347,0.6098,1
1771590234.348098516,1,28.753703677,77.115631176,28.753701200,77.115634300,6.183,-4.4806,-1.3738,-40.3347,0.5935,1
1771590234.381472111,1,28.753703800,77.115631381,28.753701200,77.115634300,6.183,-4.4806,-1.3738,-40.3347,0.5687,1
1771590234.414845467,1,28.753703974,77.115631834,28.753701200,77.115634300,6.183,-4.4806,-1.3738,-40.3347,0.5501,1
1771590234.448219061,1,28.753704256,77.115632374,28.753701200,77.115634300,6.183,-4.4806,-1.3738,-40.3347,0.6005,1
1771590234.481592417,1,28.753704155,77.115632717,28.753701200,77.115634300,6.183,-4.4806,-1.3738,-40.3347,0.5977,1
1771590234.514966011,1,28.753704471,77.115633339,28.753701200,77.115634300,6.183,-4.4806,-1.3738,-40.3347,0.5354,1
1771590234.548339605,1,28.753704869,77.115634136,28.753701200,77.115634300,6.183,-4.4806,-1.3738,-40.3347,0.5806,1
1771590234.581713200,1,28.753702861,77.115632826,28.753701000,77.115634900,6.191,-1.8544,-1.6567,-40.1708,0.6242,1
1771590234.615086317,1,28.753702817,77.115633175,28.753701000,77.115634900,6.191,-1.8544,-1.6567,-40.1708,0.6320,1
1771590234.648459911,1,28.753702899,77.115633197,28.753701000,77.115634900,6.191,-1.8544,-1.6567,-40.1708,0.6371,1
1771590234.681833506,1,28.753703083,77.115633512,28.753701000,77.115634900,6.191,-1.8544,-1.6567,-40.1708,0.6520,1
1771590234.715207100,1,28.753703039,77.115633815,28.753701000,77.115634900,6.191,-1.8544,-1.6567,-40.1708,0.5339,1
1771590234.848701000,1,28.753702385,77.115633902,28.753701000,77.115635700,6.192,-0.4478,-1.5242,-40.2031,0.6386,1
1771590234.882074356,1,28.753702502,77.115633991,28.753701000,77.115635700,6.192,-0.4478,-1.5242,-40.2031,0.6162,1
1771590234.915447950,1,28.753702555,77.115634148,28.753701000,77.115635700,6.192,-0.4478,-1.5242,-40.2031,0.5937,1
1771590235.015569448,1,28.753702363,77.115635068,28.753701000,77.115635700,6.192,-0.4478,-1.5242,-40.2031,0.5485,1
1771590239.954847336,1,28.753703676,77.115633898,28.753700900,77.115636900,6.138,-1.0393,-1.0647,-40.1043,0.5312,1
1771590239.988220692,1,28.753703582,77.115633795,28.753700900,77.115636900,6.138,-1.0393,-1.0647,-40.1043,0.5048,1
1771590240.054967642,1,28.753703832,77.115634069,28.753700900,77.115636900,6.138,-1.0393,-1.0647,-40.1043,0.5266,1
1771590240.088340998,1,28.753703320,77.115633598,28.753700700,77.115636500,6.120,-1.0493,-1.3060,-40.0408,0.5076,1
1771590240.155087948,1,28.753703266,77.115633254,28.753700700,77.115636500,6.120,-1.0493,-1.3060,-40.0408,0.5105,1
1771590240.188461542,1,28.753703046,77.115633117,28.753700700,77.115636500,6.120,-1.0493,-1.3060,-40.0408,0.6290,1
1771590240.221834660,1,28.753702659,77.115632959,28.753700700,77.115636500,6.120,-1.0493,-1.3060,-40.0408,0.5818,1
1771590240.255208254,1,28.753702576,77.115632890,28.753700700,77.115636500,6.120,-1.0493,-1.3060,-40.0408,0.6124,1
1771590240.288581610,1,28.753702535,77.115632864,28.753700700,77.115636500,6.120,-1.0493,-1.3060,-40.0408,0.6331,1
1771590240.321954966,1,28.753702290,77.115633401,28.753700400,77.115636300,6.104,-2.0347,-1.6557,-40.1831,0.5823,1
1771590240.355328321,1,28.753702092,77.115633536,28.753700400,77.115636300,6.104,-2.0347,-1.6557,-40.1831,0.5449,1
1771590240.388701916,1,28.753702164,77.115633593,28.753700400,77.115636300,6.104,-2.0347,-1.6557,-40.1831,0.6678,1
1771590240.422075510,1,28.753702401,77.115633397,28.753700400,77.115636300,6.104,-2.0347,-1.6557,-40.1831,0.5625,1
1771590240.455448627,1,28.753702278,77.115633367,28.753700400,77.115636300,6.104,-2.0347,-1.6557,-40.1831,0.5742,1
1771590240.522195578,1,28.753702339,77.115633543,28.753700400,77.115636300,6.104,-2.0347,-1.6557,-40.1831,0.6295,1
1771590240.555569172,1,28.753701979,77.115633487,28.753700400,77.115636300,6.104,-2.0347,-1.6557,-40.1831,0.6707,1
1771590240.588943720,1,28.753701359,77.115633065,28.753700100,77.115636100,6.089,-1.6345,-1.7769,-40.2745,0.6708,1
1771590240.622316837,1,28.753701359,77.115633349,28.753700100,77.115636100,6.089,-1.6345,-1.7769,-40.2745,0.6286,1
1771590240.655690432,1,28.753700746,77.115633042,28.753700100,77.115636100,6.089,-1.6345,-1.7769,-40.2745,0.6710,1
1771590240.689063787,1,28.753700461,77.115633193,28.753700100,77.115636100,6.089,-1.6345,-1.7769,-40.2745,0.6603,1
1771590240.722437143,1,28.753700247,77.115633145,28.753700100,77.115636100,6.089,-1.6345,-1.7769,-40.2745,0.5860,1
1771590240.755810738,1,28.753699935,77.115632604,28.753700100,77.115636100,6.089,-1.6345,-1.7769,-40.2745,0.6197,1
1771590240.789184093,1,28.753699794,77.115632871,28.753700100,77.115636100,6.089,-1.6345,-1.7769,-40.2745,0.5901,1
1771590240.822557688,1,28.753699574,77.115632763,28.753700100,77.115636100,6.089,-1.6345,-1.7769,-40.2745,0.5127,1
1771590240.855930805,1,28.753699403,77.115634449,28.753699800,77.115635900,6.073,-3.0314,-2.7000,-40.7875,0.5577,1
1771590240.922677755,1,28.753699629,77.115634668,28.753699800,77.115635900,6.073,-3.0314,-2.7000,-40.7875,0.6289,1
1771590243.025207758,1,28.753699192,77.115635499,28.753698400,77.115636900,5.918,-0.4749,-3.1965,-39.6558,0.5059,1
1771590243.125328064,1,28.753698622,77.115636905,28.753698700,77.115637200,5.900,1.5469,-3.0241,-38.6877,0.5750,1
1771590243.325562954,1,28.753696969,77.115639421,28.753698600,77.115637400,5.848,-1.8016,-4.5256,-37.5517,0.5622,1
1771590243.358935356,1,28.753696608,77.115639355,28.753698600,77.115637400,5.848,-1.8016,-4.5256,-37.5517,0.5312,1
1771590243.392308712,1,28.753696421,77.115639116,28.753698600,77.115637400,5.848,-1.8016,-4.5256,-37.5517,0.6121,1
1771590243.492425442,1,28.753696562,77.115638723,28.753698600,77.115637400,5.848,-1.8016,-4.5256,-37.5517,0.5516,1
1771590243.625914812,1,28.753698287,77.115633939,28.753698800,77.115637200,5.799,-2.5009,-3.8748,-37.7372,0.5287,1
1771590243.726031542,1,28.753699891,77.115633272,28.753698800,77.115637200,5.799,-2.5009,-3.8748,-37.7372,0.6033,1
1771590243.859520435,1,28.753702433,77.115629941,28.753699300,77.115637100,5.751,-1.9051,-1.4910,-38.5710,0.5679,1
1771590243.959637165,1,28.753702771,77.115628754,28.753699300,77.115637100,5.751,-1.9051,-1.4910,-38.5710,0.5524,1
1771590243.993009329,1,28.753702390,77.115628087,28.753699300,77.115637100,5.751,-1.9051,-1.4910,-38.5710,0.7528,1
1771590244.026381493,1,28.753702738,77.115627338,28.753699300,77.115637100,5.751,-1.9051,-1.4910,-38.5710,0.5638,1
1771590244.126498938,1,28.753706320,77.115627885,28.753699600,77.115637300,5.708,-4.2173,0.5984,-38.7146,0.5348,1
1771590244.159871817,1,28.753706378,77.115628679,28.753699600,77.115637300,5.708,-4.2173,0.5984,-38.7146,0.5234,1
1771590244.226619005,1,28.753706319,77.115629847,28.753699600,77.115637300,5.708,-4.2173,0.5984,-38.7146,0.6734,1
1771590244.426860094,1,28.753704175,77.115630293,28.753700000,77.115636800,5.670,-1.9683,-1.7422,-38.6497,0.5178,1
1771590244.493607521,1,28.753705445,77.115628657,28.753700000,77.115636800,5.670,-1.9683,-1.7422,-38.6497,0.5653,1
1771590244.627101660,1,28.753712137,77.115622970,28.753700400,77.115636000,5.628,-3.0837,3.4496,-38.6709,0.5114,1
1771590244.894091129,1,28.753706554,77.115627651,28.753700500,77.115635400,5.574,-2.7619,0.4568,-38.4734,0.7717,1
1771590247.764218092,1,28.753696954,77.115643911,28.753697800,77.115639800,5.407,-1.1133,-3.1541,-40.9909,0.5888,1
1771590247.897710800,1,28.753697450,77.115642380,28.753697900,77.115639300,5.407,-1.6595,-2.4795,-40.8030,0.6327,1
1771590248.064576626,1,28.753697699,77.115642361,28.753697900,77.115639300,5.407,-1.6595,-2.4795,-40.8030,0.6348,1
1771590248.097949982,1,28.753697826,77.115641390,28.753698000,77.115638300,5.411,-1.5796,-2.5196,-39.7740,0.5405,1
1771590248.131323338,1,28.753697991,77.115641583,28.753698000,77.115638300,5.411,-1.5796,-2.5196,-39.7740,0.5286,1
1771590248.198070049,1,28.753698330,77.115641375,28.753698000,77.115638300,5.411,-1.5796,-2.5196,-39.7740,0.5855,1
1771590248.598553896,1,28.753700908,77.115637753,28.753698700,77.115636600,5.431,-1.0857,-1.5076,-38.8829,0.5474,1
1771590248.631927490,1,28.753701013,77.115637551,28.753698700,77.115636600,5.431,-1.0857,-1.5076,-38.8829,0.5680,1
1771590248.665301085,1,28.753701060,77.115637176,28.753698700,77.115636600,5.431,-1.0857,-1.5076,-38.8829,0.6088,1
1771590248.765421867,1,28.753701694,77.115637243,28.753698700,77.115636600,5.431,-1.0857,-1.5076,-38.8829,0.5220,1
1771590248.798795462,1,28.753701878,77.115637035,28.753698700,77.115636600,5.431,-1.0857,-1.5076,-38.8829,0.5997,1
1771590248.832169056,1,28.753703124,77.115635797,28.753699100,77.115636000,5.440,-0.7671,-0.4223,-38.8639,0.5191,1
1771590248.999037743,1,28.753703284,77.115635942,28.753699100,77.115636000,5.440,-0.7671,-0.4223,-38.8639,0.5507,1
1771590249.032411337,1,28.753703098,77.115636041,28.753699100,77.115636000,5.440,-0.7671,-0.4223,-38.8639,0.5654,1
1771590249.165905714,1,28.753702270,77.115636417,28.753699300,77.115635600,5.433,-0.5998,-0.9639,-38.4956,0.5543,1
1771590249.299400568,1,28.753701668,77.115636294,28.753699300,77.115635600,5.433,-0.5998,-0.9639,-38.4956,0.5783,1
1771590249.332774401,1,28.753701005,77.115637035,28.753699300,77.115635200,5.421,-1.1261,-2.2399,-38.1990,0.6079,1
1771590251.435317755,1,28.753702323,77.115636888,28.753699300,77.115635200,5.421,-1.1261,-2.2399,-38.1990,0.6114,1
1771590251.502065182,1,28.753702144,77.115635873,28.753699300,77.115635200,5.421,-1.1261,-2.2399,-38.1990,0.5902,1
1771590251.535438776,1,28.753702166,77.115635072,28.753699300,77.115635200,5.421,-1.1261,-2.2399,-38.1990,0.6994,1
1771590251.568812370,1,28.753702017,77.115634280,28.753699300,77.115635200,5.421,-1.1261,-2.2399,-38.1990,0.8049,1
1771590251.602185726,1,28.753701175,77.115632011,28.753699300,77.115635000,5.369,0.2844,-2.2388,-40.2440,0.7482,1
1771590251.635559320,1,28.753701263,77.115631702,28.753699300,77.115635000,5.369,0.2844,-2.2388,-40.2440,0.7567,1
1771590251.668932915,1,28.753701369,77.115631231,28.753699300,77.115635000,5.369,0.2844,-2.2388,-40.2440,0.6407,1
1771590251.702306509,1,28.753701100,77.115631064,28.753699300,77.115635000,5.369,0.2844,-2.2388,-40.2440,0.7295,1
1771590251.735680103,1,28.753700955,77.115630677,28.753699300,77.115635000,5.369,0.2844,-2.2388,-40.2440,0.7658,1
1771590251.769053698,1,28.753700648,77.115630526,28.753699300,77.115635000,5.369,0.2844,-2.2388,-40.2440,0.7067,1
1771590251.802428246,1,28.753700584,77.115630555,28.753699300,77.115635000,5.369,0.2844,-2.2388,-40.2440,0.7242,1
1771590251.835801840,1,28.753700735,77.115630992,28.753699000,77.115634400,5.363,-1.1970,-2.2904,-40.5781,0.7201,1
1771590251.869175196,1,28.753700361,77.115631029,28.753699000,77.115634400,5.363,-1.1970,-2.2904,-40.5781,0.5743,1
1771590251.902548790,1,28.753700032,77.115630912,28.753699000,77.115634400,5.363,-1.1970,-2.2904,-40.5781,0.5510,1
1771590251.935922623,1,28.753700110,77.115631239,28.753699000,77.115634400,5.363,-1.1970,-2.2904,-40.5781,0.5312,1
1771590251.969296217,1,28.753700138,77.115631093,28.753699000,77.115634400,5.363,-1.1970,-2.2904,-40.5781,0.6457,1
1771590252.002669573,1,28.753699937,77.115631060,28.753699000,77.115634400,5.363,-1.1970,-2.2904,-40.5781,0.6611,1
1771590252.036043167,1,28.753699713,77.115631058,28.753699000,77.115634400,5.363,-1.1970,-2.2904,-40.5781,0.6330,1
1771590252.069416761,1,28.753699800,77.115631076,28.753699000,77.115634400,5.363,-1.1970,-2.2904,-40.5781,0.7261,1
1771590252.102790356,1,28.753699694,77.115632184,28.753698100,77.115633700,5.363,-3.3570,-2.5102,-41.3567,0.7702,1
1771590252.136163950,1,28.753699520,77.115631933,28.753698100,77.115633700,5.363,-3.3570,-2.5102,-41.3567,0.6831,1
1771590252.169537544,1,28.753699525,77.115632031,28.753698100,77.115633700,5.363,-3.3570,-2.5102,-41.3567,0.7364,1
1771590252.202911377,1,28.753699390,77.115631854,28.753698100,77.115633700,5.363,-3.3570,-2.5102,-41.3567,0.7294,1
1771590252.236284971,1,28.753699334,77.115631595,28.753698100,77.115633700,5.363,-3.3570,-2.5102,-41.3567,0.7403,1
1771590252.269658804,1,28.753699175,77.115631654,28.753698100,77.115633700,5.363,-3.3570,-2.5102,-41.3567,0.7799,1
1771590252.303032160,1,28.753699284,77.115631516,28.753698100,77.115633700,5.363,-3.3570,-2.5102,-41.3567,0.7204,1
1771590252.336405993,1,28.753698813,77.115631302,28.753697700,77.115633100,5.377,-3.5130,-2.8898,-41.6703,0.6731,1
1771590252.369779825,1,28.753699006,77.115631333,28.753697700,77.115633100,5.377,-3.5130,-2.8898,-41.6703,0.7162,1
1771590252.403153658,1,28.753699285,77.115631566,28.753697700,77.115633100,5.377,-3.5130,-2.8898,-41.6703,0.7654,1
1771590252.436527014,1,28.753699495,77.115631698,28.753697700,77.115633100,5.377,-3.5130,-2.8898,-41.6703,0.6561,1
1771590252.469900846,1,28.753699808,77.115631600,28.753697700,77.115633100,5.377,-3.5130,-2.8898,-41.6703,0.5111,1
1771590252.503275633,1,28.753700015,77.115631726,28.753697700,77.115633100,5.377,-3.5130,-2.8898,-41.6703,0.6637,1
1771590252.536649227,1,28.753700182,77.115631800,28.753697700,77.115633100,5.377,-3.5130,-2.8898,-41.6703,0.7285,1
1771590252.570023060,1,28.753700292,77.115631744,28.753697700,77.115633100,5.377,-3.5130,-2.8898,-41.6703,0.7197,1
1771590252.603396654,1,28.753699369,77.115630366,28.753697600,77.115632800,5.389,-1.8595,-2.7826,-41.3647,0.6696,1
1771590252.703517914,1,28.753700069,77.115630352,28.753697600,77.115632800,5.389,-1.8595,-2.7826,-41.3647,0.6004,1
1771590252.770265102,1,28.753700603,77.115630494,28.753697600,77.115632800,5.389,-1.8595,-2.7826,-41.3647,0.7425,1
1771590252.803638935,1,28.753700530,77.115630474,28.753697600,77.115632800,5.389,-1.8595,-2.7826,-41.3647,0.7597,1
1771590252.837012768,1,28.753700866,77.115629773,28.753697500,77.115632600,5.391,-1.5210,-2.1986,-40.9064,0.7555,1
1771590252.870386362,1,28.753700883,77.115629721,28.753697500,77.115632600,5.391,-1.5210,-2.1986,-40.9064,0.7662,1
1771590252.903760195,1,28.753700871,77.115629558,28.753697500,77.115632600,5.391,-1.5210,-2.1986,-40.9064,0.7446,1
1771590252.937133789,1,28.753701120,77.115629787,28.753697500,77.115632600,5.391,-1.5210,-2.1986,-40.9064,0.7100,1
1771590252.970507622,1,28.753700872,77.115629453,28.753697500,77.115632600,5.391,-1.5210,-2.1986,-40.9064,0.7249,1
1771590253.003881454,1,28.753700749,77.115629531,28.753697500,77.115632600,5.391,-1.5210,-2.1986,-40.9064,0.7807,1
1771590253.037255049,1,28.753700998,77.115629657,28.753697500,77.115632600,5.391,-1.5210,-2.1986,-40.9064,0.7080,1
1771590253.070628881,1,28.753700979,77.115629728,28.753697500,77.115632600,5.391,-1.5210,-2.1986,-40.9064,0.5926,1
1771590253.104002476,1,28.753700768,77.115629954,28.753697500,77.115632600,5.338,-1.3868,-2.5605,-40.9900,0.7105,1
1771590253.137376308,1,28.753700967,77.115630302,28.753697500,77.115632600,5.338,-1.3868,-2.5605,-40.9900,0.6427,1
1771590253.170749903,1,28.753701013,77.115630509,28.753697500,77.115632600,5.338,-1.3868,-2.5605,-40.9900,0.7607,1
1771590253.204124451,1,28.753700546,77.115630763,28.753697500,77.115632600,5.338,-1.3868,-2.5605,-40.9900,0.7394,1
1771590253.237498045,1,28.753700775,77.115630900,28.753697500,77.115632600,5.338,-1.3868,-2.5605,-40.9900,0.8421,1
1771590253.270871878,1,28.753700965,77.115630863,28.753697500,77.115632600,5.338,-1.3868,-2.5605,-40.9900,0.6651,1
1771590253.304245472,1,28.753700710,77.115630810,28.753697500,77.115632600,5.338,-1.3868,-2.5605,-40.9900,0.6629,1
1771590253.337618828,1,28.753700680,77.115631338,28.753697700,77.115632800,5.254,-1.4462,-3.3942,-41.1912,0.7094,1
1771590253.370992422,1,28.753700632,77.115631108,28.753697700,77.115632800,5.254,-1.4462,-3.3942,-41.1912,0.7606,1
1771590253.404366255,1,28.753700655,77.115630962,28.753697700,77.115632800,5.254,-1.4462,-3.3942,-41.1912,0.6448,1
1771590253.437739849,1,28.753700565,77.115630682,28.753697700,77.115632800,5.254,-1.4462,-3.3942,-41.1912,0.6681,1
1771590253.471113205,1,28.753700497,77.115630397,28.753697700,77.115632800,5.254,-1.4462,-3.3942,-41.1912,0.7858,1
1771590253.504486799,1,28.753700443,77.115630413,28.753697700,77.115632800,5.254,-1.4462,-3.3942,-41.1912,0.5836,2
1771590253.504486799,2,28.753701624,77.115629170,28.753697700,77.115632800,5.254,-1.4462,-3.3942,-41.1912,0.5066,2
1771590253.537860632,1,28.753700451,77.115630188,28.753697700,77.115632800,5.254,-1.4462,-3.3942,-41.1912,0.7182,1
1771590253.571234226,1,28.753700530,77.115630085,28.753697700,77.115632800,5.254,-1.4462,-3.3942,-41.1912,0.7235,1
1771590253.604607582,1,28.753702158,77.115630578,28.753697900,77.115632600,5.203,-3.0770,-2.8053,-40.8825,0.6843,1
1771590253.637981176,1,28.753702347,77.115630574,28.753697900,77.115632600,5.203,-3.0770,-2.8053,-40.8825,0.6086,1
1771590255.506905794,1,28.753705194,77.115632447,28.753697900,77.115632600,5.203,-3.0770,-2.8053,-40.8825,0.7797,1
1771590255.540279627,1,28.753704691,77.115632452,28.753697900,77.115632600,5.203,-3.0770,-2.8053,-40.8825,0.7140,1
1771590255.573652983,1,28.753705427,77.115628440,28.753699600,77.115630000,5.461,-1.2522,-2.6355,-40.7228,0.6387,1
1771590255.607026577,1,28.753705026,77.115628287,28.753699600,77.115630000,5.461,-1.2522,-2.6355,-40.7228,0.7105,1
1771590255.640400171,1,28.753704824,77.115628211,28.753699600,77.115630000,5.461,-1.2522,-2.6355,-40.7228,0.7441,1
1771590255.673774004,1,28.753704660,77.115628015,28.753699600,77.115630000,5.461,-1.2522,-2.6355,-40.7228,0.6861,1
1771590255.740520954,1,28.753703957,77.115627980,28.753699600,77.115630000,5.461,-1.2522,-2.6355,-40.7228,0.7296,1
1771590255.773894548,1,28.753703863,77.115627873,28.753699600,77.115630000,5.461,-1.2522,-2.6355,-40.7228,0.6264,1
1771590255.807268143,1,28.753703648,77.115628030,28.753699600,77.115630000,5.461,-1.2522,-2.6355,-40.7228,0.6294,1
1771590255.840641737,1,28.753703053,77.115628630,28.753699100,77.115629500,5.478,-2.0389,-3.4138,-41.2554,0.6596,1
1771590255.874015331,1,28.753703105,77.115628911,28.753699100,77.115629500,5.478,-2.0389,-3.4138,-41.2554,0.7481,1
1771590255.907388926,1,28.753702962,77.115629220,28.753699100,77.115629500,5.478,-2.0389,-3.4138,-41.2554,0.6774,1
1771590255.940762758,1,28.753702964,77.115629229,28.753699100,77.115629500,5.478,-2.0389,-3.4138,-41.2554,0.6110,1
1771590255.974136114,1,28.753703002,77.115629526,28.753699100,77.115629500,5.478,-2.0389,-3.4138,-41.2554,0.8477,1
1771590256.007510662,1,28.753703186,77.115629636,28.753699100,77.115629500,5.478,-2.0389,-3.4138,-41.2554,0.7632,1
1771590256.040884256,1,28.753703385,77.115629839,28.753699100,77.115629500,5.478,-2.0389,-3.4138,-41.2554,0.7074,1
1771590256.074258089,1,28.753701757,77.115628855,28.753698900,77.115629200,5.479,-0.5593,-3.9729,-41.3297,0.6664,1
1771590256.107631683,1,28.753701698,77.115628829,28.753698900,77.115629200,5.479,-0.5593,-3.9729,-41.3297,0.7625,1
1771590256.141005039,1,28.753701498,77.115628950,28.753698900,77.115629200,5.479,-0.5593,-3.9729,-41.3297,0.7470,1
1771590256.174378633,1,28.753701466,77.115629014,28.753698900,77.115629200,5.479,-0.5593,-3.9729,-41.3297,0.8159,1
1771590256.207752466,1,28.753701416,77.115629000,28.753698900,77.115629200,5.479,-0.5593,-3.9729,-41.3297,0.7808,1
1771590256.241126060,1,28.753701324,77.115629262,28.753698900,77.115629200,5.479,-0.5593,-3.9729,-41.3297,0.7172,1
1771590256.274499416,1,28.753701266,77.115629328,28.753698900,77.115629200,5.479,-0.5593,-3.9729,-41.3297,0.7524,1
1771590256.307873011,1,28.753701280,77.115629278,28.753698900,77.115629200,5.479,-0.5593,-3.9729,-41.3297,0.6826,1
1771590256.374620199,1,28.753700641,77.115629798,28.753698700,77.115629100,5.485,-0.2354,-4.7817,-41.1244,0.6060,1
1771590256.441367149,1,28.753700375,77.115629636,28.753698700,77.115629100,5.485,-0.2354,-4.7817,-41.1244,0.6466,1
1771590256.508114576,1,28.753700309,77.115629557,28.753698700,77.115629100,5.485,-0.2354,-4.7817,-41.1244,0.6335,1
1771590256.541487932,1,28.753700484,77.115629367,28.753698700,77.115629100,5.485,-0.2354,-4.7817,-41.1244,0.7546,1
1771590256.574861526,1,28.753700658,77.115628711,28.753698600,77.115628900,5.501,-0.0351,-4.3552,-40.9328,0.7748,1
1771590256.608235121,1,28.753700820,77.115628403,28.753698600,77.115628900,5.501,-0.0351,-4.3552,-40.9328,0.7504,1
1771590256.641608715,1,28.753700687,77.115628284,28.753698600,77.115628900,5.501,-0.0351,-4.3552,-40.9328,0.7474,1
1771590256.674982071,1,28.753700682,77.115628203,28.753698600,77.115628900,5.501,-0.0351,-4.3552,-40.9328,0.7148,1
1771590256.708356857,1,28.753700713,77.115628096,28.753698600,77.115628900,5.501,-0.0351,-4.3552,-40.9328,0.7522,1
1771590256.741730452,1,28.753700772,77.115627816,28.753698600,77.115628900,5.501,-0.0351,-4.3552,-40.9328,0.8231,1
1771590256.775104046,1,28.753700731,77.115627438,28.753698600,77.115628900,5.501,-0.0351,-4.3552,-40.9328,0.6805,1
1771590256.808477640,1,28.753700847,77.115626953,28.753698600,77.115628900,5.501,-0.0351,-4.3552,-40.9328,0.5349,1
1771590256.875224590,1,28.753702366,77.115625955,28.753698600,77.115628500,5.507,-0.8868,-3.2854,-40.7129,0.6729,1
1771590256.908598423,1,28.753702398,77.115625771,28.753698600,77.115628500,5.507,-0.8868,-3.2854,-40.7129,0.7819,1
1771590256.941972017,1,28.753702310,77.115625374,28.753698600,77.115628500,5.507,-0.8868,-3.2854,-40.7129,0.7137,1
1771590256.975345373,1,28.753702209,77.115625387,28.753698600,77.115628500,5.507,-0.8868,-3.2854,-40.7129,0.7345,1
1771590257.008718967,1,28.753702480,77.115625162,28.753698600,77.115628500,5.507,-0.8868,-3.2854,-40.7129,0.7404,1
1771590257.042092562,1,28.753702463,77.115625159,28.753698600,77.115628500,5.507,-0.8868,-3.2854,-40.7129,0.6950,1
1771590257.075466394,1,28.753703429,77.115624769,28.753698900,77.115628100,5.506,-1.4079,-2.6749,-40.5971,0.6936,1
1771590257.108839750,1,28.753703499,77.115624750,28.753698900,77.115628100,5.506,-1.4079,-2.6749,-40.5971,0.7939,1
1771590257.142213345,1,28.753703471,77.115624826,28.753698900,77.115628100,5.506,-1.4079,-2.6749,-40.5971,0.7855,1
1771590257.175586939,1,28.753703611,77.115624753,28.753698900,77.115628100,5.506,-1.4079,-2.6749,-40.5971,0.6724,1
1771590257.208960772,1,28.753703770,77.115624977,28.753698900,77.115628100,5.506,-1.4079,-2.6749,-40.5971,0.7494,1
1771590257.242334366,1,28.753703775,77.115624949,28.753698900,77.115628100,5.506,-1.4079,-2.6749,-40.5971,0.7435,1
1771590257.275707960,1,28.753703870,77.115624879,28.753698900,77.115628100,5.506,-1.4079,-2.6749,-40.5971,0.6997,1
1771590257.309081793,1,28.753703917,77.115624971,28.753698900,77.115628100,5.506,-1.4079,-2.6749,-40.5971,0.7002,1
1771590257.342455626,1,28.753703717,77.115623792,28.753699000,77.115627700,5.509,-0.5336,-2.6992,-40.3454,0.7565,1
1771590257.375829220,1,28.753703874,77.115623739,28.753699000,77.115627700,5.509,-0.5336,-2.6992,-40.3454,0.8025,1
1771590257.409203768,1,28.753703876,77.115623675,28.753699000,77.115627700,5.509,-0.5336,-2.6992,-40.3454,0.7213,1
1771590257.442577600,1,28.753703983,77.115623592,28.753699000,77.115627700,5.509,-0.5336,-2.6992,-40.3454,0.6251,1
1771590257.475951433,1,28.753704096,77.115623562,28.753699000,77.115627700,5.509,-0.5336,-2.6992,-40.3454,0.6478,1
1771590257.509325027,1,28.753704140,77.115623459,28.753699000,77.115627700,5.509,-0.5336,-2.6992,-40.3454,0.5788,1
1771590257.542698622,1,28.753704224,77.115623388,28.753699000,77.115627700,5.509,-0.5336,-2.6992,-40.3454,0.5605,1
1771590257.576072454,1,28.753704178,77.115622396,28.753699000,77.115627000,5.519,-0.3709,-2.5390,-40.3531,0.5278,1
1771590257.609446287,1,28.753704236,77.115622355,28.753699000,77.115627000,5.519,-0.3709,-2.5390,-40.3531,0.7156,1
1771590257.642819881,1,28.753704226,77.115622341,28.753699000,77.115627000,5.519,-0.3709,-2.5390,-40.3531,0.7425,1
1771590257.676193714,1,28.753704043,77.115621970,28.753699000,77.115627000,5.519,-0.3709,-2.5390,-40.3531,0.6291,1
1771590257.709567308,1,28.753704206,77.115621676,28.753699000,77.115627000,5.519,-0.3709,-2.5390,-40.3531,0.7475,1
1771590257.742941141,1,28.753704127,77.115621503,28.753699000,77.115627000,5.519,-0.3709,-2.5390,-40.3531,0.7448,1
1771590259.011140347,1,28.753707211,77.115620589,28.753699000,77.115627000,5.519,-0.3709,-2.5390,-40.3531,0.7158,1
1771590259.044514179,1,28.753707095,77.115621068,28.753699000,77.115627000,5.519,-0.3709,-2.5390,-40.3531,0.7999,1
1771590259.077887774,1,28.753709439,77.115618773,28.753701200,77.115625700,5.591,0.3841,-1.7515,-41.5754,0.7834,1
1771590259.111261129,1,28.753710119,77.115618538,28.753701200,77.115625700,5.591,0.3841,-1.7515,-41.5754,0.6557,1
1771590259.144634724,1,28.753709554,77.115619267,28.753701200,77.115625700,5.591,0.3841,-1.7515,-41.5754,0.7218,1
1771590259.178008080,1,28.753710432,77.115618565,28.753701200,77.115625700,5.591,0.3841,-1.7515,-41.5754,0.5820,1
1771590259.211381197,1,28.753709772,77.115619560,28.753701200,77.115625700,5.591,0.3841,-1.7515,-41.5754,0.6535,1
1771590259.244753838,1,28.753709733,77.115619821,28.753701200,77.115625700,5.591,0.3841,-1.7515,-41.5754,0.6506,1
1771590259.278126955,1,28.753709607,77.115619865,28.753701200,77.115625700,5.591,0.3841,-1.7515,-41.5754,0.7235,1
1771590259.311499834,1,28.753709439,77.115620559,28.753701200,77.115626100,5.603,0.6838,-2.0500,-40.4839,0.5893,1
1771590259.344872713,1,28.753709494,77.115620891,28.753701200,77.115626100,5.603,0.6838,-2.0500,-40.4839,0.7864,1
1771590259.378245592,1,28.753709767,77.115620852,28.753701200,77.115626100,5.603,0.6838,-2.0500,-40.4839,0.7193,1
1771590259.444991350,1,28.753709497,77.115621079,28.753701200,77.115626100,5.603,0.6838,-2.0500,-40.4839,0.7418,1
1771590259.478364229,1,28.753709314,77.115621131,28.753701200,77.115626100,5.603,0.6838,-2.0500,-40.4839,0.7078,1
1771590259.511738300,1,28.753709295,77.115621202,28.753701200,77.115626100,5.603,0.6838,-2.0500,-40.4839,0.7519,1
1771590259.545111179,1,28.753709381,77.115621302,28.753701200,77.115626100,5.603,0.6838,-2.0500,-40.4839,0.5467,1
1771590259.611856699,1,28.753709166,77.115622717,28.753701100,77.115626500,5.599,0.2448,-2.3991,-39.6486,0.6165,1
1771590259.645229578,1,28.753709138,77.115623005,28.753701100,77.115626500,5.599,0.2448,-2.3991,-39.6486,0.7437,1
1771590259.678602457,1,28.753709148,77.115623175,28.753701100,77.115626500,5.599,0.2448,-2.3991,-39.6486,0.6159,1
1771590259.711975336,1,28.753709204,77.115623344,28.753701100,77.115626500,5.599,0.2448,-2.3991,-39.6486,0.6922,1
1771590259.745348215,1,28.753709231,77.115623675,28.753701100,77.115626500,5.599,0.2448,-2.3991,-39.6486,0.7199,1
1771590259.778720856,1,28.753709424,77.115623703,28.753701100,77.115626500,5.599,0.2448,-2.3991,-39.6486,0.6388,1
1771590259.812093735,1,28.753709547,77.115623794,28.753701100,77.115626500,5.599,0.2448,-2.3991,-39.6486,0.7816,1
1771590259.845466614,1,28.753709327,77.115623867,28.753701000,77.115626700,5.594,0.6956,-2.5216,-38.9990,0.7283,1
1771590259.878839254,1,28.753709551,77.115623634,28.753701000,77.115626700,5.594,0.6956,-2.5216,-38.9990,0.6139,1
1771590259.912212133,1,28.753709507,77.115623681,28.753701000,77.115626700,5.594,0.6956,-2.5216,-38.9990,0.6788,1
1771590259.945585012,1,28.753709760,77.115623436,28.753701000,77.115626700,5.594,0.6956,-2.5216,-38.9990,0.6597,1
1771590259.978957653,1,28.753709814,77.115623486,28.753701000,77.115626700,5.594,0.6956,-2.5216,-38.9990,0.5777,1
1771590260.012330532,1,28.753709814,77.115623246,28.753701000,77.115626700,5.594,0.6956,-2.5216,-38.9990,0.6905,1
1771590260.045703411,1,28.753709799,77.115623260,28.753701000,77.115626700,5.594,0.6956,-2.5216,-38.9990,0.6220,1
1771590260.079075813,1,28.753710615,77.115622647,28.753701100,77.115626600,5.584,0.7254,-1.6978,-38.7770,0.6909,1
1771590260.112448692,1,28.753710756,77.115622613,28.753701100,77.115626600,5.584,0.7254,-1.6978,-38.7770,0.6572,1
1771590260.179194689,1,28.753710884,77.115622411,28.753701100,77.115626600,5.584,0.7254,-1.6978,-38.7770,0.6180,1
1771590260.212568998,1,28.753710992,77.115622618,28.753701100,77.115626600,5.584,0.7254,-1.6978,-38.7770,0.7574,1
1771590260.245942354,1,28.753711139,77.115622491,28.753701100,77.115626600,5.584,0.7254,-1.6978,-38.7770,0.7476,1
1771590260.279315948,1,28.753711172,77.115622410,28.753701100,77.115626600,5.584,0.7254,-1.6978,-38.7770,0.7079,1
1771590260.312689543,1,28.753711461,77.115622256,28.753701100,77.115626600,5.584,0.7254,-1.6978,-38.7770,0.6254,1
1771590260.346062660,1,28.753712706,77.115621236,28.753701400,77.115626500,5.582,0.7257,-0.8079,-38.7227,0.7826,1
1771590260.412809610,1,28.753713294,77.115620364,28.753701400,77.115626500,5.582,0.7257,-0.8079,-38.7227,0.7490,1
1771590260.446183205,1,28.753713890,77.115619794,28.753701400,77.115626500,5.582,0.7257,-0.8079,-38.7227,0.7548,1
1771590260.546303511,1,28.753715012,77.115618603,28.753701400,77.115626500,5.582,0.7257,-0.8079,-38.7227,0.5745,1
1771590260.579676867,1,28.753718511,77.115615951,28.753701600,77.115626300,5.580,0.3780,2.9707,-38.6277,0.7463,1
1771590260.613050222,1,28.753718584,77.115615870,28.753701600,77.115626300,5.580,0.3780,2.9707,-38.6277,0.7070,1
1771590260.646423817,1,28.753718534,77.115615756,28.753701600,77.115626300,5.580,0.3780,2.9707,-38.6277,0.7838,1
1771590260.679797173,1,28.753718565,77.115615580,28.753701600,77.115626300,5.580,0.3780,2.9707,-38.6277,0.7378,1
1771590260.713170767,1,28.753718462,77.115615667,28.753701600,77.115626300,5.580,0.3780,2.9707,-38.6277,0.7574,1
1771590260.746543884,1,28.753718379,77.115615602,28.753701600,77.115626300,5.580,0.3780,2.9707,-38.6277,0.7706,1
1771590260.779917479,1,28.753718314,77.115615956,28.753701600,77.115626300,5.580,0.3780,2.9707,-38.6277,0.7713,1
1771590260.813291073,1,28.753718211,77.115615804,28.753701600,77.115626300,5.580,0.3780,2.9707,-38.6277,0.5439,1
1771590260.846664190,1,28.753717962,77.115616916,28.753701500,77.115626500,5.573,-0.0802,2.8132,-38.7610,0.7812,1
1771590260.880037785,1,28.753717553,77.115617115,28.753701500,77.115626500,5.573,-0.0802,2.8132,-38.7610,0.7064,1
1771590260.913412333,1,28.753717025,77.115617564,28.753701500,77.115626500,5.573,-0.0802,2.8132,-38.7610,0.8074,1
1771590260.946785688,1,28.753716440,77.115618208,28.753701500,77.115626500,5.573,-0.0802,2.8132,-38.7610,0.7897,1
1771590260.980159283,1,28.753716090,77.115618618,28.753701500,77.115626500,5.573,-0.0802,2.8132,-38.7610,0.7155,1
1771590261.013532400,1,28.753715764,77.115619057,28.753701500,77.115626500,5.573,-0.0802,2.8132,-38.7610,0.6080,1
1771590261.046905994,1,28.753715591,77.115619426,28.753701500,77.115626500,5.573,-0.0802,2.8132,-38.7610,0.7496,1
1771590261.080279589,1,28.753712879,77.115621443,28.753701500,77.115626600,5.570,0.1500,-0.3826,-39.0519,0.7311,1
1771590261.113652945,1,28.753712633,77.115621528,28.753701500,77.115626600,5.570,0.1500,-0.3826,-39.0519,0.7151,1
1771590261.147026300,1,28.753712534,77.115621487,28.753701500,77.115626600,5.570,0.1500,-0.3826,-39.0519,0.7319,1
1771590261.180399656,1,28.753713455,77.115620454,28.753701500,77.115626600,5.570,0.1500,-0.3826,-39.0519,0.5236,1
1771590261.213773251,1,28.753712302,77.115621383,28.753701500,77.115626600,5.570,0.1500,-0.3826,-39.0519,0.7108,1
1771590261.247146845,1,28.753712368,77.115621266,28.753701500,77.115626600,5.570,0.1500,-0.3826,-39.0519,0.7571,1
1771590262.548715115,1,28.753705582,77.115624672,28.753701500,77.115626600,5.570,0.1500,-0.3826,-39.0519,0.5739,1
1771590262.582088709,1,28.753701698,77.115630244,28.753699800,77.115629200,5.538,-0.5436,-3.9045,-44.0437,0.6996,1
1771590262.615462065,1,28.753701802,77.115630545,28.753699800,77.115629200,5.538,-0.5436,-3.9045,-44.0437,0.6223,1
1771590262.782329559,1,28.753701277,77.115631216,28.753699800,77.115629200,5.538,-0.5436,-3.9045,-44.0437,0.5722,1
1771590263.015945196,1,28.753699998,77.115633420,28.753699500,77.115629900,5.533,-0.3089,-5.3069,-43.9175,0.5920,1
1771590263.082692385,1,28.753699721,77.115633735,28.753699500,77.115630600,5.540,0.7380,-5.5544,-43.3493,0.5782,1
1771590263.116065979,1,28.753699970,77.115633801,28.753699500,77.115630600,5.540,0.7380,-5.5544,-43.3493,0.6220,1
1771590263.182812929,1,28.753700502,77.115633485,28.753699500,77.115630600,5.540,0.7380,-5.5544,-43.3493,0.6770,1
1771590263.249559402,1,28.753700779,77.115633849,28.753699500,77.115630600,5.540,0.7380,-5.5544,-43.3493,0.5779,1
1771590263.282932520,1,28.753700706,77.115633797,28.753699500,77.115630600,5.540,0.7380,-5.5544,-43.3493,0.5566,1
1771590263.349679232,1,28.753700787,77.115633232,28.753699700,77.115631100,5.560,1.3548,-5.1936,-42.4689,0.7661,1
1771590263.383052588,1,28.753700677,77.115632907,28.753699700,77.115631100,5.560,1.3548,-5.1936,-42.4689,0.6499,1
1771590263.416425467,1,28.753700680,77.115632930,28.753699700,77.115631100,5.560,1.3548,-5.1936,-42.4689,0.7186,1
1771590263.449798822,1,28.753700698,77.115632556,28.753699700,77.115631100,5.560,1.3548,-5.1936,-42.4689,0.5211,1
1771590263.483172178,1,28.753700396,77.115632128,28.753699700,77.115631100,5.560,1.3548,-5.1936,-42.4689,0.5478,1
1771590263.549918413,1,28.753700400,77.115631778,28.753699700,77.115631100,5.560,1.3548,-5.1936,-42.4689,0.6060,1
1771590263.583291769,1,28.753701324,77.115632298,28.753699800,77.115631100,5.571,0.0902,-5.0587,-42.0938,0.5527,1
1771590263.616665125,1,28.753701581,77.115632114,28.753699800,77.115631100,5.571,0.0902,-5.0587,-42.0938,0.5055,1
1771590263.650038004,1,28.753701258,77.115631808,28.753699800,77.115631100,5.571,0.0902,-5.0587,-42.0938,0.6506,1
1771590263.683411360,1,28.753701639,77.115631417,28.753699800,77.115631100,5.571,0.0902,-5.0587,-42.0938,0.6169,1
1771590263.716785669,1,28.753701872,77.115631220,28.753699800,77.115631100,5.571,0.0902,-5.0587,-42.0938,0.6562,1
1771590263.750158787,1,28.753701973,77.115630848,28.753699800,77.115631100,5.571,0.0902,-5.0587,-42.0938,0.5585,1
1771590263.850278378,1,28.753703338,77.115628823,28.753699800,77.115630500,5.565,-0.0679,-3.9990,-42.2367,0.6471,1
1771590263.883651495,1,28.753703586,77.115628446,28.753699800,77.115630500,5.565,-0.0679,-3.9990,-42.2367,0.7021,1
1771590263.917024612,1,28.753703666,77.115628145,28.753699800,77.115630500,5.565,-0.0679,-3.9990,-42.2367,0.7674,1
1771590263.950397968,1,28.753703882,77.115628253,28.753699800,77.115630500,5.565,-0.0679,-3.9990,-42.2367,0.7701,1
1771590263.983771324,1,28.753703770,77.115627863,28.753699800,77.115630500,5.565,-0.0679,-3.9990,-42.2367,0.8276,1
1771590264.017144203,1,28.753704019,77.115627705,28.753699800,77.115630500,5.565,-0.0679,-3.9990,-42.2367,0.7590,1
1771590264.050517559,1,28.753704178,77.115627441,28.753699800,77.115630500,5.565,-0.0679,-3.9990,-42.2367,0.7371,1
1771590264.083890676,1,28.753705748,77.115625192,28.753700200,77.115629500,5.556,-0.4029,-2.9453,-42.6373,0.7385,1
1771590264.117264032,1,28.753706102,77.115624859,28.753700200,77.115629500,5.556,-0.4029,-2.9453,-42.6373,0.6493,1
1771590264.150636911,1,28.753706174,77.115624153,28.753700200,77.115629500,5.556,-0.4029,-2.9453,-42.6373,0.6298,1
1771590264.250757217,1,28.753706554,77.115622776,28.753700200,77.115629500,5.556,-0.4029,-2.9453,-42.6373,0.6960,1
1771590264.284130573,1,28.753706707,77.115622133,28.753700200,77.115629500,5.556,-0.4029,-2.9453,-42.6373,0.7383,1
1771590264.317504168,1,28.753706741,77.115621619,28.753700200,77.115629500,5.556,-0.4029,-2.9453,-42.6373,0.6834,1
1771590264.417625427,1,28.753710713,77.115618303,28.753701000,77.115628200,5.554,-1.6347,-0.8496,-42.9361,0.7530,1
1771590264.450998783,1,28.753711273,77.115617900,28.753701000,77.115628200,5.554,-1.6347,-0.8496,-42.9361,0.6443,1
1771590264.484372377,1,28.753711616,77.115617661,28.753701000,77.115628200,5.554,-1.6347,-0.8496,-42.9361,0.8287,1
1771590264.517745733,1,28.753712152,77.115617401,28.753701000,77.115628200,5.554,-1.6347,-0.8496,-42.9361,0.7000,1
1771590264.551119089,1,28.753712519,77.115616823,28.753701000,77.115628200,5.554,-1.6347,-0.8496,-42.9361,0.8346,1
1771590264.584492683,1,28.753716616,77.115613191,28.753701900,77.115627400,5.557,-1.4375,2.4919,-42.1847,0.7097,1
1771590264.617866278,1,28.753716963,77.115612269,28.753701900,77.115627400,5.557,-1.4375,2.4919,-42.1847,0.8200,1
1771590264.651239395,1,28.753717633,77.115611803,28.753701900,77.115627400,5.557,-1.4375,2.4919,-42.1847,0.7903,1
1771590264.684612989,1,28.753718135,77.115611298,28.753701900,77.115627400,5.557,-1.4375,2.4919,-42.1847,0.7207,1
1771590264.717986345,1,28.753718826,77.115610896,28.753701900,77.115627400,5.557,-1.4375,2.4919,-42.1847,0.7700,1
1771590264.751359940,1,28.753719172,77.115610759,28.753701900,77.115627400,5.557,-1.4375,2.4919,-42.1847,0.6836,1
1771590264.784733295,1,28.753719307,77.115610815,28.753701900,77.115627400,5.557,-1.4375,2.4919,-42.1847,0.7592,1
1771590266.119674444,1,28.753714202,77.115619618,28.753701900,77.115627400,5.557,-1.4375,2.4919,-42.1847,0.5954,1
1771590266.153047800,1,28.753714217,77.115620161,28.753701900,77.115627400,5.557,-1.4375,2.4919,-42.1847,0.5288,1
1771590266.186421394,1,28.753714651,77.115620819,28.753701900,77.115627400,5.557,-1.4375,2.4919,-42.1847,0.5193,1
1771590266.219794989,1,28.753714384,77.115621448,28.753701900,77.115627400,5.557,-1.4375,2.4919,-42.1847,0.6494,1
1771590266.253168106,1,28.753714350,77.115622046,28.753701900,77.115627400,5.557,-1.4375,2.4919,-42.1847,0.6712,1
1771590266.286541700,1,28.753714124,77.115622663,28.753701900,77.115627400,5.557,-1.4375,2.4919,-42.1847,0.6509,1
1771590266.319915056,1,28.753710383,77.115626596,28.753701900,77.115629700,5.625,1.1964,-0.8849,-37.3310,0.5932,1
1771590266.353288651,1,28.753710213,77.115626939,28.753701900,77.115629700,5.625,1.1964,-0.8849,-37.3310,0.6747,1
1771590266.386661768,1,28.753709688,77.115627399,28.753701900,77.115629700,5.625,1.1964,-0.8849,-37.3310,0.6335,1
1771590266.420035124,1,28.753709443,77.115627390,28.753701900,77.115629700,5.625,1.1964,-0.8849,-37.3310,0.5313,1
1771590266.453408718,1,28.753709234,77.115627238,28.753701900,77.115629700,5.625,1.1964,-0.8849,-37.3310,0.6524,1
1771590266.653650045,1,28.753706929,77.115630242,28.753701500,77.115630700,5.622,-0.5975,-1.7832,-37.2082,0.6799,1
1771590267.421239376,1,28.753702567,77.115634887,28.753700100,77.115633000,5.628,-1.0569,-2.7563,-39.8009,0.5203,1
1771590267.454612732,1,28.753702294,77.115635165,28.753700100,77.115633000,5.628,-1.0569,-2.7563,-39.8009,0.5852,1
1771590273.462073565,1,28.753703853,77.115632276,28.753701600,77.115633200,5.915,0.5466,-1.2961,-43.2418,0.5045,1
1771590273.895920753,1,28.753702963,77.115634817,28.753701700,77.115633500,5.850,-1.9263,-3.0380,-40.3015,0.6213,1
1771590274.062784195,1,28.753702876,77.115634056,28.753701700,77.115633500,5.850,-1.9263,-3.0380,-40.3015,0.5590,1
1771590274.096157074,1,28.753703551,77.115634058,28.753701500,77.115633200,5.841,-2.4502,-2.6487,-40.1706,0.6242,1
1771590274.396512270,1,28.753704881,77.115632390,28.753701500,77.115632900,5.840,-2.9661,-1.8715,-39.8346,0.6134,1
1771590274.496630192,1,28.753705333,77.115632756,28.753701500,77.115632900,5.840,-2.9661,-1.8715,-39.8346,0.6182,1
1771590274.530002594,1,28.753705228,77.115632809,28.753701500,77.115632900,5.840,-2.9661,-1.8715,-39.8346,0.6754,1
1771590274.563375473,1,28.753705334,77.115632871,28.753701500,77.115632900,5.840,-2.9661,-1.8715,-39.8346,0.6601,1
1771590274.596748114,1,28.753705369,77.115632623,28.753701700,77.115633000,5.845,-2.1786,-1.7272,-39.5403,0.6320,1
1771590274.630120516,1,28.753705518,77.115632688,28.753701700,77.115633000,5.845,-2.1786,-1.7272,-39.5403,0.5996,1
1771590274.663493395,1,28.753705309,77.115632865,28.753701700,77.115633000,5.845,-2.1786,-1.7272,-39.5403,0.5531,1
1771590274.696866035,1,28.753705252,77.115633214,28.753701700,77.115633000,5.845,-2.1786,-1.7272,-39.5403,0.5305,1
1771590274.863729000,1,28.753705210,77.115633386,28.753702200,77.115633200,5.851,-1.1768,-2.3117,-39.5243,0.5497,1
1771590274.897101641,1,28.753705587,77.115633487,28.753702200,77.115633200,5.851,-1.1768,-2.3117,-39.5243,0.6242,1
1771590274.930474997,1,28.753705609,77.115633519,28.753702200,77.115633200,5.851,-1.1768,-2.3117,-39.5243,0.6810,1
1771590274.963847637,1,28.753705607,77.115633694,28.753702200,77.115633200,5.851,-1.1768,-2.3117,-39.5243,0.5232,1
1771590274.997220278,1,28.753705831,77.115633333,28.753702200,77.115633200,5.851,-1.1768,-2.3117,-39.5243,0.5075,1
1771590275.030592680,1,28.753705886,77.115633349,28.753702200,77.115633200,5.851,-1.1768,-2.3117,-39.5243,0.6101,1
1771590275.063965321,1,28.753705726,77.115633075,28.753702200,77.115633200,5.851,-1.1768,-2.3117,-39.5243,0.5995,1
1771590275.130710363,1,28.753706642,77.115632741,28.753702600,77.115633200,5.863,-1.3218,-1.7528,-39.8686,0.5741,1
1771590275.197455645,1,28.753706948,77.115632777,28.753702600,77.115633200,5.863,-1.3218,-1.7528,-39.8686,0.5237,1
1771590275.230828285,1,28.753707073,77.115632665,28.753702600,77.115633200,5.863,-1.3218,-1.7528,-39.8686,0.5314,1
1771590275.264200926,1,28.753707221,77.115632722,28.753702600,77.115633200,5.863,-1.3218,-1.7528,-39.8686,0.5320,1
1771590275.297573805,1,28.753707206,77.115632490,28.753702600,77.115633200,5.863,-1.3218,-1.7528,-39.8686,0.5691,1
1771590275.330946207,1,28.753708281,77.115631177,28.753703200,77.115633100,5.879,-0.5605,-0.8938,-40.2794,0.6347,1
1771590275.364319086,1,28.753708573,77.115631434,28.753703200,77.115633100,5.879,-0.5605,-0.8938,-40.2794,0.5696,1
1771590275.397691727,1,28.753708418,77.115631496,28.753703200,77.115633100,5.879,-0.5605,-0.8938,-40.2794,0.5537,1
1771590277.934020519,1,28.753699877,77.115639549,28.753701900,77.115634000,5.983,-1.7860,-5.2466,-40.1650,0.5520,1
1771590277.967393160,1,28.753700085,77.115639802,28.753701900,77.115634000,5.983,-1.7860,-5.2466,-40.1650,0.6104,1
1771590278.000765562,1,28.753700207,77.115639661,28.753701900,77.115634000,5.983,-1.7860,-5.2466,-40.1650,0.6707,1
1771590278.034138203,1,28.753700208,77.115639752,28.753701900,77.115634000,5.983,-1.7860,-5.2466,-40.1650,0.6803,1
1771590278.067510843,1,28.753700262,77.115639513,28.753701900,77.115634000,5.983,-1.7860,-5.2466,-40.1650,0.5837,1
1771590278.201000929,1,28.753700050,77.115637856,28.753701500,77.115633600,6.012,-1.2623,-4.6177,-39.8389,0.5880,1
1771590278.234373569,1,28.753700345,77.115637819,28.753701500,77.115633600,6.012,-1.2623,-4.6177,-39.8389,0.5268,1
1771590278.367864370,1,28.753701759,77.115637150,28.753701400,77.115632900,5.997,-2.3313,-4.0551,-39.4915,0.5383,1
1771590278.501355648,1,28.753702391,77.115635844,28.753701400,77.115632900,5.997,-2.3313,-4.0551,-39.4915,0.5178,1
1771590278.534728289,1,28.753702300,77.115635271,28.753701400,77.115632900,5.997,-2.3313,-4.0551,-39.4915,0.6352,1
1771590278.601473570,1,28.753704275,77.115632978,28.753701400,77.115632100,5.989,-2.8791,-2.5830,-39.5135,0.6659,1
1771590278.634846210,1,28.753704505,77.115633104,28.753701400,77.115632100,5.989,-2.8791,-2.5830,-39.5135,0.6348,1
